[{"lat": 39.808900000000001, "range": 230, "lng": 116.47190000000001, "id": "9010", "name": "beijing"}, {"lat": 39.043900000000001, "range": 230, "lng": 117.7169, "id": "9220", "name": "tianjin"}, {"lat": 45.724200000000003, "range": 150, "lng": 126.7283, "id": "9451", "name": "heilongjiang"}, {"lat": 25.9819, "range": 460, "lng": 119.53189999999999, "id": "9591", "name": "fujian"}, {"lat": 28.590800000000002, "range": 230, "lng": 115.8989, "id": "9791", "name": "jiangxi"}, {"lat": 36.802799999999998, "range": 230, "lng": 116.7808, "id": "9531", "name": "shandong"}, {"lat": 19.997800000000002, "range": 230, "lng": 110.2469, "id": "9898", "name": "hainan"}, {"lat": 27.895, "range": 460, "lng": 120.7428, "id": "9577", "name": "wenzhou"}, {"lat": 30.068899999999999, "range": 460, "lng": 122.10890000000001, "id": "9580", "name": "zhoushan"}, {"lat": 29.206900000000001, "range": 230, "lng": 119.6442, "id": "9579", "name": "jinhua"}, {"lat": 30.273900000000001, "range": 230, "lng": 120.3378, "id": "9571", "name": "hangzhou"}, {"lat": 29.085799999999999, "range": 230, "lng": 118.7025, "id": "9570", "name": "quzhou"}, {"lat": 33.431100000000001, "range": 460, "lng": 120.2011, "id": "9515", "name": "station-yancheng"}, {"lat": 34.650599999999997, "range": 460, "lng": 119.2944, "id": "9518", "name": "lianyungang"}, {"lat": 31.900600000000001, "range": 230, "lng": 119.7803, "id": "9519", "name": "changzhou"}, {"lat": 38.909999999999997, "range": 125, "lng": 121.64919999999999, "id": "9411", "name": "dalian"}, {"lat": 31.074999999999999, "range": 230, "lng": 120.959, "id": "9002", "name": "qingpu"}, {"lat": 32.878900000000002, "range": 230, "lng": 115.74079999999999, "id": "9558", "name": "fuyang"}, {"lat": 24.4819, "range": 460, "lng": 118.0789, "id": "9592", "name": "xiamen"}, {"lat": 25.0578, "range": 230, "lng": 117.1819, "id": "9597", "name": "longyan"}, {"lat": 27.350000000000001, "range": 230, "lng": 118.10080000000001, "id": "9599", "name": "jianyang"}, {"lat": 27.565799999999999, "range": 200, "lng": 110.00279999999999, "id": "9745", "name": "huaihua"}, {"lat": 30.286899999999999, "range": 230, "lng": 109.2569, "id": "9718", "name": "enshi"}, {"lat": 22.809999999999999, "range": 230, "lng": 108.40000000000001, "id": "9771", "name": "nanning"}, {"lat": 23.902799999999999, "range": 230, "lng": 106.6028, "id": "9776", "name": "baise"}, {"lat": 24.2578, "range": 230, "lng": 115.9928, "id": "9753", "name": "meizhou"}, {"lat": 23.2944, "range": 460, "lng": 116.69970000000001, "id": "9754", "name": "shantou"}, {"lat": 23.690300000000001, "range": 230, "lng": 114.6069, "id": "9762", "name": "hyuan"}, {"lat": 37.498899999999999, "range": 230, "lng": 121.3878, "id": "9535", "name": "yantai"}, {"lat": 27.043099999999999, "range": 150, "lng": 114.9139, "id": "9796", "name": "jian"}, {"lat": 25.8797, "range": 150, "lng": 114.9692, "id": "9797", "name": "ganzhou"}, {"lat": 29.535, "range": 230, "lng": 115.95359999999999, "id": "9792", "name": "jiujiang"}, {"lat": 28.442799999999998, "range": 230, "lng": 117.9772, "id": "9793", "name": "shangrao"}, {"lat": 34.533299999999997, "range": 200, "lng": 107.2333, "id": "9917", "name": "baoji"}, {"lat": 41.759700000000002, "range": 150, "lng": 86.203599999999994, "id": "9996", "name": "kuerle"}, {"lat": 39.459699999999998, "range": 150, "lng": 76.027500000000003, "id": "9998", "name": "kashi"}]