[{"lat": 39.808900000000001, "range": 230, "lng": 116.47190000000001, "id": "9010", "name": "beijing"}, {"lat": 39.043900000000001, "range": 230, "lng": 117.7169, "id": "9220", "name": "tianjin"}, {"lat": 38.351900000000001, "range": 230, "lng": 114.7119, "id": "9311", "name": "hebei"}, {"lat": 37.734999999999999, "range": 150, "lng": 112.5792, "id": "9351", "name": "shanxi"}, {"lat": 40.981900000000003, "range": 125, "lng": 111.69970000000001, "id": "9471", "name": "neimeng"}, {"lat": 41.969200000000001, "range": 150, "lng": 126.19889999999999, "id": "9439", "name": "beishan"}, {"lat": 45.724200000000003, "range": 150, "lng": 126.7283, "id": "9451", "name": "heilongjiang"}, {"lat": 25.9819, "range": 460, "lng": 119.53189999999999, "id": "9591", "name": "fujian"}, {"lat": 28.590800000000002, "range": 230, "lng": 115.8989, "id": "9791", "name": "jiangxi"}, {"lat": 34.678899999999999, "range": 230, "lng": 111.1294, "id": "9398", "name": "henan"}, {"lat": 36.802799999999998, "range": 230, "lng": 116.7808, "id": "9531", "name": "shandong"}, {"lat": 30.286899999999999, "range": 230, "lng": 109.2569, "id": "9718", "name": "enshi"}, {"lat": 19.997800000000002, "range": 230, "lng": 110.2469, "id": "9898", "name": "hainan"}, {"lat": 26.590299999999999, "range": 125, "lng": 106.7264, "id": "9851", "name": "guizhou"}, {"lat": 23.466899999999999, "range": 150, "lng": 104.25, "id": "9876", "name": "wenshan"}, {"lat": 29.522500000000001, "range": 230, "lng": 106.4889, "id": "9230", "name": "chongqing"}, {"lat": 29.6661, "range": 125, "lng": 91.134399999999999, "id": "9891", "name": "xizang"}, {"lat": 35.716099999999997, "range": 125, "lng": 107.62690000000001, "id": "9934", "name": "gansu"}, {"lat": 38.479700000000001, "range": 125, "lng": 106.21469999999999, "id": "9951", "name": "ningxia"}, {"lat": 36.605600000000003, "range": 125, "lng": 101.77030000000001, "id": "9971", "name": "qinghai"}, {"lat": 38.909999999999997, "range": 125, "lng": 121.64919999999999, "id": "9411", "name": "dalian"}, {"lat": 41.532200000000003, "range": 125, "lng": 120.5, "id": "9421", "name": "chaoyang"}, {"lat": 47.366700000000002, "range": 150, "lng": 123.9344, "id": "9452", "name": "qiqihaer"}, {"lat": 44.591099999999997, "range": 150, "lng": 129.59970000000001, "id": "9453", "name": "mudanjiang"}, {"lat": 46.796100000000003, "range": 150, "lng": 130.31809999999999, "id": "9454", "name": "jiamusi"}, {"lat": 50.408099999999997, "range": 150, "lng": 124.1178, "id": "9457", "name": "jiagedaqi"}, {"lat": 47.700800000000001, "range": 150, "lng": 128.9153, "id": "9458", "name": "heilongjiang/yichuan"}, {"lat": 31.074999999999999, "range": 230, "lng": 120.959, "id": "9002", "name": "qingpu"}, {"lat": 33.431100000000001, "range": 460, "lng": 120.2011, "id": "9515", "name": "station-yancheng"}, {"lat": 34.2928, "range": 230, "lng": 117.1519, "id": "9516", "name": "xuzhou"}, {"lat": 34.650599999999997, "range": 460, "lng": 119.2944, "id": "9518", "name": "lianyungang"}, {"lat": 31.900600000000001, "range": 230, "lng": 119.7803, "id": "9519", "name": "changzhou"}, {"lat": 27.895, "range": 460, "lng": 120.7428, "id": "9577", "name": "wenzhou"}, {"lat": 30.068899999999999, "range": 460, "lng": 122.10890000000001, "id": "9580", "name": "zhoushan"}, {"lat": 29.206900000000001, "range": 230, "lng": 119.6442, "id": "9579", "name": "jinhua"}, {"lat": 30.273900000000001, "range": 230, "lng": 120.3378, "id": "9571", "name": "hangzhou"}, {"lat": 29.085799999999999, "range": 230, "lng": 118.7025, "id": "9570", "name": "quzhou"}, {"lat": 45.814700000000002, "range": 150, "lng": 122.81359999999999, "id": "9436", "name": "baicheng"}, {"lat": 41.969200000000001, "range": 150, "lng": 126.19889999999999, "id": "9439", "name": "beishan"}, {"lat": 42.899999999999999, "range": 150, "lng": 125.15000000000001, "id": "9437", "name": "liaoyuan"}, {"lat": 31.7011, "range": 150, "lng": 118.51609999999999, "id": "9555", "name": "maanshan"}, {"lat": 32.878900000000002, "range": 230, "lng": 115.74079999999999, "id": "9558", "name": "fuyang"}, {"lat": 32.918100000000003, "range": 230, "lng": 117.4478, "id": "9552", "name": "fengb"}, {"lat": 30.616700000000002, "range": 230, "lng": 116.4744, "id": "9556", "name": "anqing"}, {"lat": 30.138300000000001, "range": 230, "lng": 118.16500000000001, "id": "9559", "name": "huangshan"}, {"lat": 41.155000000000001, "range": 200, "lng": 114.6936, "id": "9313", "name": "zhangjiakou"}, {"lat": 39.880800000000001, "range": 230, "lng": 118.88079999999999, "id": "9335", "name": "qinhuangdao"}, {"lat": 40.9758, "range": 200, "lng": 117.9178, "id": "9314", "name": "chengde"}, {"lat": 38.306399999999996, "range": 230, "lng": 116.8064, "id": "9317", "name": "hebei/cangzhou"}, {"lat": 36.0625, "range": 150, "lng": 111.49420000000001, "id": "9357", "name": "linfen"}, {"lat": 40.071899999999999, "range": 200, "lng": 113.39, "id": "9352", "name": "datong"}, {"lat": 36.223599999999998, "range": 150, "lng": 113.0553, "id": "9355", "name": "changzhi"}, {"lat": 42.232799999999997, "range": 125, "lng": 118.9661, "id": "9476", "name": "chifeng"}, {"lat": 49.203899999999997, "range": 125, "lng": 119.7533, "id": "9470", "name": "hailaer"}, {"lat": 39.816899999999997, "range": 200, "lng": 110.05029999999999, "id": "9477", "name": "eerduosi"}, {"lat": 43.619999999999997, "range": 200, "lng": 122.2608, "id": "9475", "name": "tongliao"}, {"lat": 40.734699999999997, "range": 125, "lng": 107.3686, "id": "9478", "name": "liank"}, {"lat": 24.4819, "range": 460, "lng": 118.0789, "id": "9592", "name": "xiamen"}, {"lat": 25.0578, "range": 230, "lng": 117.1819, "id": "9597", "name": "longyan"}, {"lat": 27.350000000000001, "range": 230, "lng": 118.10080000000001, "id": "9599", "name": "jianyang"}, {"lat": 24.357199999999999, "range": 230, "lng": 109.45610000000001, "id": "9772", "name": "liuzhou"}, {"lat": 22.809999999999999, "range": 230, "lng": 108.40000000000001, "id": "9771", "name": "nanning"}, {"lat": 23.902799999999999, "range": 230, "lng": 106.6028, "id": "9776", "name": "baise"}, {"lat": 24.9894, "range": 230, "lng": 107.5081, "id": "9778", "name": "chih"}, {"lat": 21.4467, "range": 230, "lng": 109.04170000000001, "id": "9779", "name": "beihai"}, {"lat": 23.469999999999999, "range": 230, "lng": 111.3044, "id": "9774", "name": "wuzhou"}, {"lat": 24.790800000000001, "range": 230, "lng": 113.5658, "id": "9751", "name": "shaoguan"}, {"lat": 24.2578, "range": 230, "lng": 115.9928, "id": "9753", "name": "meizhou"}, {"lat": 21.844999999999999, "range": 460, "lng": 111.9789, "id": "9662", "name": "yangjiang"}, {"lat": 23.2944, "range": 460, "lng": 116.69970000000001, "id": "9754", "name": "shantou"}, {"lat": 21.0122, "range": 460, "lng": 110.5261, "id": "9759", "name": "zhjiang"}, {"lat": 23.690300000000001, "range": 230, "lng": 114.6069, "id": "9762", "name": "hyuan"}, {"lat": 22.818300000000001, "range": 460, "lng": 115.3561, "id": "9660", "name": "shanwei"}, {"lat": 29.180800000000001, "range": 230, "lng": 111.7069, "id": "9736", "name": "changde"}, {"lat": 27.565799999999999, "range": 200, "lng": 110.00279999999999, "id": "9745", "name": "huaihua"}, {"lat": 26.2256, "range": 230, "lng": 111.6164, "id": "9746", "name": "yongzhou"}, {"lat": 29.299399999999999, "range": 230, "lng": 113.1031, "id": "9730", "name": "yueyang"}, {"lat": 27.2072, "range": 230, "lng": 111.44670000000001, "id": "9739", "name": "shaoyang"}, {"lat": 30.701899999999998, "range": 230, "lng": 111.29640000000001, "id": "9717", "name": "yichang"}, {"lat": 30.286899999999999, "range": 230, "lng": 109.2569, "id": "9718", "name": "enshi"}, {"lat": 32.599400000000003, "range": 230, "lng": 110.7436, "id": "9719", "name": "shiyan"}, {"lat": 30.351700000000001, "range": 230, "lng": 112.1481, "id": "9716", "name": "jingzhou"}, {"lat": 31.7256, "range": 230, "lng": 113.3886, "id": "9722", "name": "szhou"}, {"lat": 35.796700000000001, "range": 230, "lng": 114.95829999999999, "id": "9393", "name": "puyang"}, {"lat": 34.7044, "range": 230, "lng": 113.6972, "id": "9371", "name": "zhengzhou"}, {"lat": 33.009999999999998, "range": 230, "lng": 114.02030000000001, "id": "9396", "name": "zhumadian"}, {"lat": 33.020800000000001, "range": 230, "lng": 112.49250000000001, "id": "9377", "name": "nanyang"}, {"lat": 34.407200000000003, "range": 230, "lng": 115.63030000000001, "id": "9370", "name": "shangqiu"}, {"lat": 28.8203, "range": 125, "lng": 104.57810000000001, "id": "9831", "name": "yibin"}, {"lat": 31.452200000000001, "range": 150, "lng": 104.765, "id": "9816", "name": "mianyang"}, {"lat": 30.821899999999999, "range": 150, "lng": 106.0778, "id": "9817", "name": "nanchong"}, {"lat": 27.879999999999999, "range": 125, "lng": 102.4106, "id": "9834", "name": "xichang"}, {"lat": 32.4056, "range": 125, "lng": 105.8228, "id": "9839", "name": "guangyuan"}, {"lat": 31.170000000000002, "range": 125, "lng": 107.53, "id": "9818", "name": "dazhou"}, {"lat": 37.498899999999999, "range": 230, "lng": 121.3878, "id": "9535", "name": "yantai"}, {"lat": 35.050800000000002, "range": 125, "lng": 118.34780000000001, "id": "9539", "name": "linyi"}, {"lat": 35.988599999999998, "range": 230, "lng": 120.22969999999999, "id": "9532", "name": "qingdao"}, {"lat": 36.255600000000001, "range": 125, "lng": 117.1056, "id": "9538", "name": "taishan"}, {"lat": 27.043099999999999, "range": 150, "lng": 114.9139, "id": "9796", "name": "jian"}, {"lat": 25.8797, "range": 150, "lng": 114.9692, "id": "9797", "name": "ganzhou"}, {"lat": 29.535, "range": 230, "lng": 115.95359999999999, "id": "9792", "name": "jiujiang"}, {"lat": 28.442799999999998, "range": 230, "lng": 117.9772, "id": "9793", "name": "shangrao"}, {"lat": 24.4892, "range": 150, "lng": 98.344399999999993, "id": "9692", "name": "dehong"}, {"lat": 27.352499999999999, "range": 150, "lng": 103.7197, "id": "9870", "name": "shaotong"}, {"lat": 23.466899999999999, "range": 150, "lng": 104.25, "id": "9876", "name": "wenshan"}, {"lat": 22.824999999999999, "range": 150, "lng": 101.02, "id": "9879", "name": "simao"}, {"lat": 26.727799999999998, "range": 150, "lng": 100.04219999999999, "id": "9888", "name": "lijiang"}, {"lat": 16.833600000000001, "range": 125, "lng": 112.33329999999999, "id": "9071", "name": "xisha"}, {"lat": 38.272199999999998, "range": 200, "lng": 109.78060000000001, "id": "9912", "name": "yulin"}, {"lat": 32.725299999999997, "range": 200, "lng": 109.03749999999999, "id": "9915", "name": "ankang"}, {"lat": 36.609400000000001, "range": 200, "lng": 109.4881, "id": "9911", "name": "yanan"}, {"lat": 33.130000000000003, "range": 200, "lng": 107.474, "id": "9916", "name": "hanzhong"}, {"lat": 34.533299999999997, "range": 200, "lng": 107.2333, "id": "9917", "name": "baoji"}, {"lat": 45.469999999999999, "range": 150, "lng": 84.963899999999995, "id": "9990", "name": "kelamayi"}, {"lat": 41.759700000000002, "range": 150, "lng": 86.203599999999994, "id": "9996", "name": "kuerle"}, {"lat": 41.1633, "range": 150, "lng": 80.234999999999999, "id": "9997", "name": "akesu"}, {"lat": 43.941899999999997, "range": 150, "lng": 81.325299999999999, "id": "9999", "name": "yining"}, {"lat": 44.2864, "range": 150, "lng": 85.976100000000002, "id": "9993", "name": "shihezi"}, {"lat": 39.459699999999998, "range": 150, "lng": 76.027500000000003, "id": "9998", "name": "kashi"}, {"lat": 44.148299999999999, "range": 150, "lng": 87.554699999999997, "id": "9081", "name": "xinjiang/wujiaqu"}, {"lat": 35.659999999999997, "range": 125, "lng": 106.19, "id": "9954", "name": "guyuan"}, {"lat": 30.802800000000001, "range": 230, "lng": 108.6831, "id": "9090", "name": "wanzhou"}, {"lat": 29.591699999999999, "range": 125, "lng": 108.7281, "id": "9091", "name": "qinjiang"}, {"lat": 29.300599999999999, "range": 230, "lng": 105.83280000000001, "id": "9092", "name": "chongqing/yongchuan"}, {"lat": 27.682500000000001, "range": 125, "lng": 106.9131, "id": "9852", "name": "zunyi"}, {"lat": 26.3231, "range": 150, "lng": 107.5147, "id": "9854", "name": "duyun"}, {"lat": 25.0883, "range": 125, "lng": 104.8964, "id": "9859", "name": "xingyi"}, {"lat": 27.303899999999999, "range": 125, "lng": 105.30110000000001, "id": "9857", "name": "bijie"}, {"lat": 26.9633, "range": 150, "lng": 108.6885, "id": "9855", "name": "guizhou/qindongnan"}, {"lat": 36.009999999999998, "range": 150, "lng": 103.85080000000001, "id": "9931", "name": "lanzhou"}, {"lat": 39.088299999999997, "range": 150, "lng": 100.27670000000001, "id": "9936", "name": "zhangye"}, {"lat": 34.603900000000003, "range": 125, "lng": 105.6386, "id": "9938", "name": "tianshui"}, {"lat": 39.764400000000002, "range": 150, "lng": 98.297799999999995, "id": "9937", "name": "jiayuguan"}, {"lat": 36.951700000000002, "range": 125, "lng": 100.905, "id": "9970", "name": "haibei"}, {"lat": 29.633099999999999, "range": 125, "lng": 94.395799999999994, "id": "9894", "name": "linzhi"}, {"lat": 29.257200000000001, "range": 125, "lng": 88.893299999999996, "id": "9892", "name": "rigeze"}, {"lat": 31.480599999999999, "range": 125, "lng": 92.060599999999994, "id": "9896", "name": "xizang/naqu"}, {"lat": 29.522500000000001, "range": 230, "lng": 106.4889, "id": "9230", "name": "chongqing"}, {"lat": 36.605600000000003, "range": 125, "lng": 101.77030000000001, "id": "9971", "name": "qinghai"}]